[
    {
      "id": 1,
      "name": "asdsads",
      "description": "sadasdasdsa",
      "created_at": null,
      "updated_at": null,
      "user_id": 1,
      "latitude": "10.80000000",
      "longitude": "11.80000000",
      "companions": 0,
      "price": 0,
      "images": []
    },
    {
      "id": 2,
      "name": "sagrera",
      "description": "pisito muy bonito",
      "created_at": "2020-09-09 07:40:23",
      "updated_at": "2020-09-09 07:40:23",
      "user_id": 1,
      "latitude": "10.80000000",
      "longitude": "11.80000000",
      "companions": 0,
      "price": 0,
      "images": []
    },
    {
      "id": 3,
      "name": "sant Andreu",
      "description": "pisito grande muy bonito",
      "created_at": "2020-09-09 07:40:48",
      "updated_at": "2020-09-09 07:40:48",
      "user_id": 1,
      "latitude": "10.80000000",
      "longitude": "11.80000000",
      "companions": 0,
      "price": 0,
      "images": []
    },
    {
      "id": 4,
      "name": "Eixample",
      "description": "pisito de lummies",
      "created_at": "2020-09-09 07:43:29",
      "updated_at": "2020-09-09 07:43:29",
      "user_id": 1,
      "latitude": "41.40338000",
      "longitude": "2.17403000",
      "companions": 0,
      "price": 0,
      "images": []
    },
    {
      "id": 5,
      "name": "Vic",
      "description": "casita",
      "created_at": "2020-09-09 08:21:08",
      "updated_at": "2020-09-09 08:21:08",
      "user_id": 2,
      "latitude": "41.40338000",
      "longitude": "2.17403000",
      "companions": 3,
      "price": 350,
      "images": []
    },
    {
      "id": 6,
      "name": "asdasdasdas",
      "description": null,
      "created_at": "2020-09-09 08:37:54",
      "updated_at": "2020-09-09 08:37:54",
      "user_id": null,
      "latitude": "10.25000000",
      "longitude": "2.00000000",
      "companions": 3,
      "price": 233,
      "images": []
    },
    {
      "id": 7,
      "name": "asdasdasdas",
      "description": null,
      "created_at": "2020-09-09 08:37:54",
      "updated_at": "2020-09-09 08:37:54",
      "user_id": null,
      "latitude": "10.25000000",
      "longitude": "20.00000000",
      "companions": 3,
      "price": 233,
      "images": []
    },
    {
      "id": 8,
      "name": "asdasdasdas",
      "description": null,
      "created_at": "2020-09-09 08:37:54",
      "updated_at": "2020-09-09 08:37:54",
      "user_id": null,
      "latitude": "10.25000000",
      "longitude": "20.00000000",
      "companions": 3,
      "price": 233,
      "images": []
    },
    {
      "id": 9,
      "name": "asdasdasdas",
      "description": null,
      "created_at": "2020-09-09 08:37:54",
      "updated_at": "2020-09-09 08:37:54",
      "user_id": null,
      "latitude": "10.25000000",
      "longitude": "20.20000000",
      "companions": 3,
      "price": 233,
      "images": []
    },
    {
      "id": 10,
      "name": "asdasdasdas",
      "description": null,
      "created_at": "2020-09-09 08:37:55",
      "updated_at": "2020-09-09 08:37:55",
      "user_id": null,
      "latitude": "10.25000000",
      "longitude": "20.20000000",
      "companions": 3,
      "price": 233,
      "images": []
    },
    {
      "id": 11,
      "name": "vvvvvvvvvvv",
      "description": null,
      "created_at": "2020-09-09 08:45:57",
      "updated_at": "2020-09-09 08:45:57",
      "user_id": null,
      "latitude": "20.20000000",
      "longitude": "10.60000000",
      "companions": 3,
      "price": 6,
      "images": []
    },
    {
      "id": 12,
      "name": "mar de plata",
      "description": null,
      "created_at": "2020-09-09 08:47:03",
      "updated_at": "2020-09-09 08:47:03",
      "user_id": null,
      "latitude": "45.20000000",
      "longitude": "12.00000000",
      "companions": 7,
      "price": 900,
      "images": []
    },
    {
      "id": 13,
      "name": "hola hola",
      "description": null,
      "created_at": "2020-09-09 08:48:29",
      "updated_at": "2020-09-09 08:48:29",
      "user_id": null,
      "latitude": "20.20000000",
      "longitude": "12.20000000",
      "companions": 4,
      "price": 1500,
      "images": []
    },
    {
      "id": 14,
      "name": "dfsdfsdfsdf",
      "description": null,
      "created_at": "2020-09-09 08:51:03",
      "updated_at": "2020-09-09 08:51:03",
      "user_id": null,
      "latitude": "12.30000000",
      "longitude": "32.20000000",
      "companions": 2,
      "price": 244,
      "images": []
    },
    {
      "id": 15,
      "name": "dfsdfsdfsdf",
      "description": null,
      "created_at": "2020-09-09 08:51:06",
      "updated_at": "2020-09-09 08:51:06",
      "user_id": null,
      "latitude": "12.30000000",
      "longitude": "32.20000000",
      "companions": 2,
      "price": 244,
      "images": []
    },
    {
      "id": 16,
      "name": "dfsdfsdfsdf",
      "description": null,
      "created_at": "2020-09-09 08:51:20",
      "updated_at": "2020-09-09 08:51:20",
      "user_id": null,
      "latitude": "12.30000000",
      "longitude": "32.20000000",
      "companions": 2,
      "price": 244,
      "images": []
    },
    {
      "id": 17,
      "name": "weweweweweew",
      "description": null,
      "created_at": "2020-09-09 08:52:53",
      "updated_at": "2020-09-09 08:52:53",
      "user_id": null,
      "latitude": "12.21000000",
      "longitude": "33.20000000",
      "companions": 2,
      "price": 2333,
      "images": []
    },
    {
      "id": 18,
      "name": "fsdfsdfsdfsdfsdfsdfsdf",
      "description": null,
      "created_at": "2020-09-09 08:53:34",
      "updated_at": "2020-09-09 08:53:34",
      "user_id": null,
      "latitude": "5.00000000",
      "longitude": "5.00000000",
      "companions": 6,
      "price": 666,
      "images": []
    },
    {
      "id": 19,
      "name": "sadasdasdsa",
      "description": null,
      "created_at": "2020-09-09 08:57:15",
      "updated_at": "2020-09-09 08:57:15",
      "user_id": null,
      "latitude": "23.00000000",
      "longitude": "2.00000000",
      "companions": 4,
      "price": 444,
      "images": []
    },
    {
      "id": 20,
      "name": "sadasdasdsa",
      "description": null,
      "created_at": "2020-09-09 08:57:24",
      "updated_at": "2020-09-09 08:57:24",
      "user_id": null,
      "latitude": "23.00000000",
      "longitude": "2.00000000",
      "companions": 4,
      "price": 444,
      "images": []
    },
    {
      "id": 21,
      "name": "asdas",
      "description": null,
      "created_at": "2020-09-09 08:57:55",
      "updated_at": "2020-09-09 08:57:55",
      "user_id": null,
      "latitude": "33.00000000",
      "longitude": "3.00000000",
      "companions": 3,
      "price": 3333,
      "images": []
    },
    {
      "id": 22,
      "name": "rrrrrrrrrr",
      "description": null,
      "created_at": "2020-09-09 09:01:15",
      "updated_at": "2020-09-09 09:01:15",
      "user_id": null,
      "latitude": "33.00000000",
      "longitude": "33.00000000",
      "companions": 3,
      "price": 3333,
      "images": []
    },
    {
      "id": 23,
      "name": "asdasdasd",
      "description": null,
      "created_at": "2020-09-09 09:02:27",
      "updated_at": "2020-09-09 09:02:27",
      "user_id": null,
      "latitude": "56.00000000",
      "longitude": "55.00000000",
      "companions": 3,
      "price": 333,
      "images": []
    },
    {
      "id": 24,
      "name": "xzczxc",
      "description": null,
      "created_at": "2020-09-09 09:02:56",
      "updated_at": "2020-09-09 09:02:56",
      "user_id": null,
      "latitude": "3.00000000",
      "longitude": "3.00000000",
      "companions": 3,
      "price": 3,
      "images": []
    },
    {
      "id": 25,
      "name": "asassasasa",
      "description": null,
      "created_at": "2020-09-09 09:03:58",
      "updated_at": "2020-09-09 09:03:58",
      "user_id": null,
      "latitude": "5.00000000",
      "longitude": "5.00000000",
      "companions": 5,
      "price": 5,
      "images": []
    },
    {
      "id": 26,
      "name": "Calle vilaseca 30",
      "description": null,
      "created_at": "2020-09-09 09:04:32",
      "updated_at": "2020-09-09 09:04:32",
      "user_id": null,
      "latitude": "5.00000000",
      "longitude": "5.00000000",
      "companions": 5,
      "price": 5,
      "images": []
    },
    {
      "id": 27,
      "name": "sdsadasd",
      "description": null,
      "created_at": "2020-09-09 09:08:36",
      "updated_at": "2020-09-09 09:08:36",
      "user_id": null,
      "latitude": "5.00000000",
      "longitude": "5.00000000",
      "companions": 3,
      "price": 3,
      "images": []
    }
  ]